"City","type","id","lon","lat","place","name","name:en","wikidata"
London,node,196021,-0.1748844,51.6301762,suburb,Whetstone,,
London,node,196694,-0.1990538,51.5819126,suburb,Temple Fortune,,
London,node,200088,-0.158614,51.6128484,suburb,Friern Barnet,,
London,node,201212,-0.1420768,51.5910395,suburb,Muswell Hill,,
London,node,222466,-0.22162,51.5897442,suburb,Hendon,,
London,node,20962675,-0.2387441,51.4718962,suburb,Barnes,,
London,node,21042294,-0.1398817,51.4889993,suburb,Pimlico,,
London,node,21099165,-0.2919292,51.4806629,suburb,Kew,,
London,node,21099166,-0.3283389,51.4467941,suburb,Twickenham,Twickenham,
London,node,21262497,-0.0711328,51.4193664,suburb,Crystal Palace,,
London,node,21315205,-0.1665496,51.4234522,neighbourhood,Tooting Graveney,,
London,node,21329597,-0.1990563,51.4191783,suburb,South Wimbledon,South Wimbledon,
London,node,25921913,0.1004646,51.4261326,suburb,Sidcup,,
London,node,25921915,0.0685289,51.4362297,suburb,New Eltham,,
London,node,26269779,-0.586262,51.238464,suburb,Guildford Park,,
London,node,26472010,-0.0245145,51.4310809,suburb,Bellingham,,
London,node,26472011,-0.0054183,51.4502982,suburb,Hither Green,,
London,node,26472012,0.0064566,51.426111,suburb,Downham,,
London,node,26545978,-0.0906603,51.4901142,suburb,Walworth,,
London,node,26546003,-0.1003287,51.4952794,suburb,Elephant & Castle,,
London,node,26562607,-0.1567541,51.3796135,suburb,Hackbridge,,
London,node,26663137,-0.3101946,51.7455778,suburb,The Camp,,
London,node,26728131,0.301663,51.4777652,suburb,South Stifford,,
London,node,26745366,-0.1472083,51.5110777,suburb,Mayfair,,
London,node,26745371,-0.1219057,51.5160098,suburb,St Giles,,
London,node,27364398,-0.0756012,51.5834664,suburb,Seven Sisters,,
London,node,27364686,-0.0672892,51.5976955,suburb,Tottenham,,
London,node,27364687,-0.1238939,51.5759984,suburb,Crouch End,,
London,node,27365015,-0.0898489,51.5868063,suburb,West Green,,
London,node,27365016,-0.0690402,51.5707092,suburb,Stamford Hill,,
London,node,27365017,-0.0605697,51.5668384,suburb,Upper Clapton,,
London,node,27365018,-0.0772816,51.5576971,suburb,Stoke Newington,,
London,node,27365019,-0.0550912,51.5546565,suburb,Lower Clapton,,
London,node,27365020,-0.0999051,51.5384287,suburb,Islington,,
London,node,27365022,-0.1425625,51.5500658,suburb,Kentish Town,,
London,node,27365023,-0.1517524,51.5536863,suburb,Gospel Oak,,
London,node,27365024,-0.0561633,51.5303456,suburb,Bethnal Green,,
London,node,27365026,-0.0707674,51.532094,suburb,Haggerston,,
London,node,27365028,-0.0587291,51.5054363,suburb,Wapping,,
London,node,27365029,-0.0798926,51.5266694,suburb,Shoreditch,,
London,node,27365031,-0.1055555,51.5237268,suburb,Clerkenwell,,
London,node,27365033,-0.1260664,51.523126,suburb,Bloomsbury,,
London,node,27365035,-0.0697911,51.5017679,suburb,Bermondsey,,
London,node,27365036,-0.0201029,51.4939034,suburb,Millwall,,
London,node,27365037,-0.0427738,51.496791,suburb,Rotherhithe,,
London,node,27365038,-0.0462189,51.5174023,suburb,Stepney,,
London,node,27365039,-0.0351492,51.5133074,suburb,Limehouse,,
London,node,27365040,-0.009917,51.4925989,suburb,Cubitt Town,,
London,node,27365041,-0.0064024,51.5065004,suburb,Blackwall,,
London,node,27365042,-0.0183016,51.4974707,suburb,Isle of Dogs,,
London,node,27365043,-0.0143883,51.5111811,suburb,Poplar,,
London,node,27365044,-0.0172319,51.5266309,suburb,Bromley-by-Bow,,
London,node,27365045,-0.0194816,51.5283085,suburb,Bow,,
London,node,27365049,0.0064237,51.5710783,suburb,Leytonstone,,
London,node,27365051,-0.0659791,51.6203392,suburb,Edmonton,,
London,node,27365297,-0.1148807,51.5544402,suburb,Lower Holloway,,
London,node,27365298,-0.1338683,51.5644891,suburb,Upper Holloway,,
London,node,27365299,-0.1027127,51.5457996,suburb,Highbury,,
London,node,27365300,-0.114735,51.5389351,suburb,Barnsbury,,
London,node,27365303,0.0365359,51.4826053,suburb,Charlton,,
London,node,27365501,-0.2358661,51.5466216,suburb,Willesden,,
London,node,27365509,-0.3406636,51.5715948,suburb,Harrow on the Hill,,
London,node,27365512,-0.3294758,51.5936353,suburb,Wealdstone,,
London,node,27365513,-0.3216623,51.4863958,suburb,Brentford,,
London,node,27396436,-0.1831368,51.4955817,suburb,South Kensington,,
London,node,27396490,-0.166965,51.5008444,suburb,Knightsbridge,,
London,node,27467065,-0.1410017,51.5187642,suburb,Fitzrovia,,
London,node,27467066,-0.1504553,51.5220589,suburb,Marylebone,,
London,node,27467067,-0.1682205,51.4875417,suburb,Chelsea,,
London,node,27467184,-0.1792423,51.5163047,suburb,Paddington,,
London,node,27467185,-0.1905916,51.527592,suburb,Maida Vale,,
London,node,27481928,-0.0850011,51.539929,suburb,De Beauvoir Town,,
London,node,27481929,-0.0399629,51.5504686,suburb,Homerton,,
London,node,27485888,0.0769545,51.4115718,suburb,Chislehurst,,
London,node,27485890,0.1148486,51.4989335,suburb,Thamesmead,,
London,node,27485891,0.1138557,51.3954765,suburb,St Mary Cray,,
London,node,27485892,0.150488,51.4416793,suburb,Bexley,,
London,node,27485893,0.1823013,51.4775613,suburb,Erith,,
London,node,27486121,0.0134976,51.5181741,suburb,Canning Town,,
London,node,27486122,0.0077912,51.5343247,suburb,West Ham,,
London,node,27486150,0.1275378,51.5492654,suburb,Becontree,,
London,node,27529126,-0.099995,51.5810883,suburb,Harringay,,
London,node,27529290,-0.3263111,51.4683558,suburb,Isleworth,,
London,node,27534857,-0.3381584,51.5089838,suburb,Hanwell,,
London,node,27547447,0.4138362,51.6399396,suburb,Queens Park,,
London,node,27553615,0.0249097,51.5293798,suburb,Plaistow,,
London,node,27553702,-0.1116818,51.4824378,suburb,Kennington,,
London,node,27553707,-0.1229297,51.4874834,suburb,Vauxhall,,
London,node,27553712,-0.103458,51.5029222,suburb,Southwark,,
London,node,27553719,-0.117287,51.5013012,suburb,Lambeth,,
London,node,27553725,-0.1209153,51.4672726,suburb,Stockwell,,
London,node,27553734,-0.0925416,51.4745706,suburb,Camberwell,,
London,node,27553742,-0.0727322,51.4585551,suburb,East Dulwich,,
London,node,27553749,-0.0843244,51.4418786,suburb,Dulwich,,
London,node,27553768,-0.0539538,51.439108,suburb,Forest Hill,,
London,node,27554058,-0.0215164,51.4758453,suburb,Deptford,,
London,node,27554063,-0.044769,51.475072,suburb,New Cross Gate,,
London,node,27554266,-0.172214,51.4707933,suburb,Battersea,,
London,node,27729031,-0.123596,51.6281547,suburb,Southgate,,
London,node,27729624,-0.1209667,51.5873645,suburb,Hornsey,,
London,node,27729625,-0.1805587,51.5973246,suburb,Finchley,,
London,node,27731303,0.0395776,51.6051901,suburb,Woodford,,
London,node,27731566,0.0848694,51.588311,suburb,Barkingside,,
London,node,27731567,0.0922634,51.5758531,suburb,Newbury Park,,
London,node,27731568,0.0277989,51.5756739,suburb,Wanstead,,
London,node,27732675,0.1059038,51.46529,suburb,Welling,,
London,node,27732676,0.0924286,51.4804635,suburb,Plumstead,,
London,node,27732678,0.1140504,51.487621,suburb,Abbey Wood,,
London,node,28296776,-0.0534213,51.4146841,suburb,Penge,,
London,node,28825933,-0.0190782,51.7465723,suburb,Broxbourne,,
London,node,29402048,-0.1001002,51.4554407,suburb,Herne Hill,,
London,node,29402049,-0.1020591,51.4412109,suburb,Tulse Hill,,
London,node,29944851,-0.3521696,51.5538342,neighbourhood,Wood End,,
London,node,30738531,-0.3092987,51.4347641,suburb,Ham,,
London,node,30807392,0.3884929,51.5046853,suburb,The Bonners,,
London,node,31000778,-0.1610857,51.3657883,suburb,Carshalton,,
London,node,31922291,-0.1222891,51.4454502,suburb,Streatham Hill,,
London,node,33382361,0.064154,51.5004071,suburb,North Woolwich,,
London,node,33499702,-0.0972619,51.5647805,suburb,Brownswood Park,,
London,node,33758152,-0.1323928,51.3719875,suburb,Beddington,,
London,node,33758228,-0.1495621,51.357945,suburb,Wallington,,
London,node,46577755,0.3396093,51.6245702,suburb,Hutton Mount,,
London,node,55573229,-0.5879453,51.2547532,suburb,Stoughton,,
London,node,60465311,-0.1568827,51.3260695,neighbourhood,Clockhouse,,
London,node,64653632,-0.0523877,51.4267658,suburb,Sydenham,,
London,node,105539532,-0.0768216,51.3980951,suburb,South Norwood,,
London,node,106227330,-0.0148762,51.3759744,suburb,West Wickham,,
London,node,107364368,-0.5788071,51.2566215,suburb,Bellfields,,
London,node,123921330,-0.0303183,51.4070938,suburb,Beckenham,,
London,node,130823478,-0.0416048,51.3994675,suburb,Elmers End,,
London,node,133226366,-0.5685139,51.257909,suburb,Slyfield,,
London,node,138187664,-0.0466335,51.3749243,suburb,Shirley,,
London,node,183613836,0.2679097,51.5614882,suburb,Cranham,,
London,node,206144557,-0.3639269,51.4146463,neighbourhood,The Beveree,,
London,node,207141595,-0.0699321,51.4734122,suburb,Peckham,,
London,node,242917397,-0.2828604,51.3788758,neighbourhood,Tolworth,,
London,node,243814259,-0.086078,51.5323935,suburb,Hoxton,,
London,node,249335467,-0.1305736,51.3535628,neighbourhood,Roundshaw,,
London,node,249674698,-0.1640787,51.4058006,suburb,Mitcham,,
London,node,251136941,-0.590488,51.249293,suburb,Woodbridge Hill,,
London,node,253101009,-0.3463595,51.4647068,suburb,Worton,,
London,node,255756095,-0.1127378,51.6222544,suburb,Palmers Green,,
London,node,266798614,-0.2416023,51.3783998,suburb,Worcester Park,,
London,node,266799034,-0.2462611,51.3627372,suburb,Stoneleigh,,
London,node,267113333,-0.1712613,51.3563143,neighbourhood,Carshalton Beeches,,
London,node,267243756,-0.5819864,51.3061908,suburb,Hook Heath,,
London,node,281041529,-0.1374411,51.5313031,suburb,Somers Town,,
London,node,314729225,-0.385174,51.640054,suburb,Watford Heath,,
London,node,360873726,0.3194846,51.4416277,suburb,Ebbsfleet,,
London,node,362908707,0.0625225,51.550298,suburb,Little Ilford,,
London,node,364663239,-0.3404854,51.6047861,suburb,Harrow Weald,,
London,node,364663370,-0.3181008,51.601225,suburb,Belmont,,
London,node,364664640,-0.3134253,51.5846627,suburb,Kenton,,
London,node,364844511,-0.2804994,51.5854367,suburb,Kingsbury,,
London,node,383729579,-0.0959005,51.5268671,suburb,Saint Luke's,,
London,node,385147398,-0.2412672,51.4498773,suburb,Roehampton,,
London,node,385147523,-0.267094,51.4623706,suburb,East Sheen,,
London,node,385148479,-0.2685226,51.4698873,suburb,Mortlake,,
London,node,390315780,-0.2064713,51.4447618,suburb,Southfields,,
London,node,409700968,-0.0550076,51.4602475,suburb,Nunhead,,
London,node,410414098,0.1960469,51.2834527,suburb,St John's,,
London,node,410414376,0.1810988,51.2608431,suburb,West Heath,,
London,node,410647948,0.1992177,51.2900206,suburb,Greatness,,
London,node,410648677,0.2173846,51.2842505,suburb,Wildernesse,,
London,node,410648766,0.1786321,51.2670418,suburb,Kippington,,
London,node,417082231,-0.0681413,51.4761515,neighbourhood,Bells Gardens Estate,,
London,node,501542564,0.3500722,51.423395,suburb,Durndale,,
London,node,501542566,0.3470395,51.435521,suburb,Perry Street,,
London,node,501542567,0.3857308,51.4393626,suburb,Milton,,
London,node,508862304,-0.3332121,51.7400886,suburb,Cottonmill,,
London,node,529377104,0.3793047,51.424759,suburb,Whitehill,,
London,node,530141846,0.3925114,51.4175559,suburb,Riverview Park,,
London,node,565457860,-0.093802,51.5022704,suburb,Borough,,
London,node,573872928,0.3517396,51.4258306,suburb,Shears Green,,
London,node,597337167,-0.5076939,51.5073322,suburb,Richings Park,,
London,node,597379779,0.1324402,51.5304104,suburb,Scrattons Farm,,
London,node,597379918,0.1043626,51.5286041,suburb,Thames View,,
London,node,613930456,0.38059,51.4124511,suburb,Singlewell,,
London,node,626591740,-0.1503643,51.4456449,suburb,Balham,,
London,node,637322685,0.3883058,51.4373562,suburb,Denton,,
London,node,705682847,0.2513598,51.5429422,suburb,Corbets Tey,,
London,node,775366617,-0.1957337,51.225031,suburb,Woodhatch,,
London,node,1110793939,0.3752931,51.4233152,suburb,Kings Farm,,
London,node,1110793953,0.3905872,51.4290022,suburb,Westcourt,,
London,node,1110793994,0.3827937,51.4234496,suburb,Parrock Farm,,
London,node,1110794014,0.3792589,51.4207615,suburb,Christian Fields,,
London,node,1110794017,0.3708939,51.4342603,suburb,Windmill Hill,,
London,node,1119298320,0.3588146,51.3817899,neighbourhood,Hook Green,,
London,node,1123412172,-0.2005407,51.6531493,suburb,High Barnet,,
London,node,1157717825,-0.4962994,51.6443225,suburb,Berry Lane Estate,,
London,node,1189132201,-0.4816778,51.6400899,suburb,The Cedars Estate,,
London,node,1189174048,-0.4839047,51.6372003,suburb,Moneyhill,,
London,node,1252236090,-0.5991426,51.715011,suburb,Hilltop,,
London,node,1341723809,-0.0074722,51.550617,suburb,Temple Mills,,
London,node,1341723823,0.034673,51.5369171,suburb,Upton Park,,
London,node,1341723829,0.0029768,51.5506778,suburb,Stratford New Town,,
London,node,1341723836,0.0249248,51.5495236,suburb,Forest Gate,,
London,node,1341723842,0.0476391,51.5506867,suburb,Manor Park,,
London,node,1355670856,0.1583019,51.5314455,suburb,Rylands Estate,,
London,node,1447936888,-0.0353557,51.5960399,neighbourhood,Higham Hill,,
London,node,1451345431,-0.1279303,51.5731623,neighbourhood,New Orleans Estate,,
London,node,1643104228,-0.5562152,51.4272903,neighbourhood,Ripley Springs,,
London,node,1653239257,-0.1365727,51.5079082,neighbourhood,St. James's,,
London,node,1669242693,-0.0467923,51.4686583,neighbourhood,Telegraph Hill,,
London,node,1671182708,-0.1740747,51.5542879,suburb,Hampstead,,
London,node,1716927288,-0.1070713,51.5265742,suburb,Finsbury,,
London,node,1755356236,-0.1946371,51.6088451,suburb,West Finchley,,
London,node,1756264132,-0.0619306,51.6610068,suburb,Carterhatch,,
London,node,1760412764,-0.3310533,51.7366141,suburb,Sopwell,,
London,node,1760412769,-0.3132016,51.7524539,suburb,Fleetville,,
London,node,1760412779,-0.3430111,51.7357065,suburb,St Julians,,
London,node,1761641556,-0.3145926,51.7230947,suburb,Napsbury,,
London,node,1769839658,-0.1508199,51.5436179,suburb,Chalk Farm,,
London,node,1769839663,-0.1683005,51.5473926,suburb,Belsize Park,,
London,node,1846251039,-0.2167865,51.5661866,suburb,North Cricklewood,,
London,node,1912082054,-0.1050978,51.5847966,neighbourhood,Harringay Ladder,,
London,node,2078816594,-0.2924247,51.7395864,suburb,Tyttenhanger,,
London,node,2087473098,0.3072231,51.3968111,neighbourhood,The Chase,,
London,node,2089095722,-0.0154323,51.598434,neighbourhood,Chapel End,,
London,node,2089099115,-0.0038474,51.5879103,neighbourhood,Wood Street,,
London,node,2089929392,-0.2386411,51.5881858,suburb,"Hendon, The Hyde",,
London,node,2089929393,-0.244866,51.6028898,suburb,Grahame Park,,
London,node,2100666417,-0.1434524,51.2456429,neighbourhood,Chilmead Barns,,
London,node,2106478607,-0.227022,51.5828243,suburb,Hendon Central,,
London,node,2143779938,-0.1678664,51.463615,suburb,Clapham Junction,,
London,node,2144167585,-0.1871122,51.4725454,suburb,Sands End,,
London,node,2176970106,-0.3224118,51.4567091,suburb,St Margarets,,
London,node,2298727214,-0.4063644,51.5840686,neighbourhood,Eastcote Village,,
London,node,2312964447,0.0721868,51.5010046,neighbourhood,Galleons Point,,
London,node,2325649033,-0.4181471,51.5077154,suburb,Hayes,,
London,node,2369008993,-0.1955219,51.5718315,suburb,Golders Green,,
London,node,2379080368,0.0860883,51.7464616,suburb,Kingsmoor,,
London,node,2392813733,-0.0852963,51.5473979,neighbourhood,Mildmay Park,,
London,node,2410173388,-0.5607853,51.2362924,suburb,Charlotteville,,
London,node,2482174799,-0.3651527,51.6682906,neighbourhood,Otterspool,,
London,node,2484565491,0.0067632,51.5527616,suburb,Wanstead Slip,,
London,node,2495106058,-0.1131004,51.5916767,neighbourhood,Haringey Heartlands,,
London,node,2496071363,-0.2915108,51.5762155,suburb,Preston,,
London,node,2595103132,0.0771282,51.3909147,suburb,Petts Wood,,
London,node,2595113712,0.0744282,51.3648907,suburb,Farnborough,,
London,node,2595113717,0.0625805,51.3670479,suburb,Locksbottom,,
London,node,2595115193,0.0487508,51.3803379,suburb,Bromley Common,,
London,node,2595123135,0.0838757,51.3507678,suburb,Green Street Green,,
London,node,2940888058,-0.3112656,51.3940747,neighbourhood,Seething Wells,,
London,node,2958890518,0.1722045,51.2927113,neighbourhood,Ryewood,,
London,node,3207532292,-0.3367211,51.5551182,neighbourhood,North Greenford,,
London,node,3207881701,-0.2732607,51.5081402,suburb,Acton,,
London,node,3282529867,0.2485771,51.5587447,suburb,Upminster,,
London,node,3319761264,-0.0001023,51.581543,suburb,Whipps Cross,,
London,node,3335927673,-0.5276444,51.3340438,suburb,Sheerwater,,
London,node,3470411219,-0.5045637,51.4383492,neighbourhood,Birch Green,,
London,node,3470411229,-0.4496081,51.4346579,neighbourhood,Chattern Hill,,
London,node,3470411269,-0.5000255,51.4306161,neighbourhood,Knowle Green,,
London,node,3470411272,-0.4445943,51.4217179,neighbourhood,Littleton Cotton,,
London,node,3470411277,-0.5412548,51.3198241,neighbourhood,Maybury,,
London,node,3470411309,-0.443008,51.349968,neighbourhood,St George's Hill,,
London,node,3471197730,-0.4408517,51.4479531,neighbourhood,East Bedfont,,
London,node,3471197734,-0.5638189,51.3109708,neighbourhood,Mount Hermon,,
London,node,3471213292,-0.3299423,51.4541529,neighbourhood,Cole Park,,
London,node,3471216195,-0.3571356,51.399102,neighbourhood,East Molesey,,
London,node,3471216196,-0.4241636,51.4277215,neighbourhood,Felthamhill,,
London,node,3471216198,-0.3896734,51.4725011,suburb,Hounslow West,,
London,node,3471216200,-0.4256346,51.4374201,neighbourhood,Lower Feltham,,
London,node,3471216201,-0.4050892,51.4577357,neighbourhood,North Feltham,,
London,node,3471216208,-0.4232078,51.4215234,neighbourhood,Sunbury Common,,
London,node,3471216214,-0.3641342,51.4047705,neighbourhood,West Molesey,,
London,node,3517779027,0.2992772,51.2875379,neighbourhood,Isles Quarry West,,
London,node,3575430433,0.0103002,51.3777836,suburb,Hayes,,
London,node,3584603472,-0.015681,51.5696734,suburb,Leyton,,
London,node,3756642912,-0.0262781,51.4826296,neighbourhood,Hughesfield Estate,,
London,node,3758236840,-0.0276142,51.4823646,neighbourhood,Sayes Court Estate,,
London,node,3928517083,-0.1359006,51.5780916,suburb,Shepherd's Hill,,
London,node,3928522466,-0.1280663,51.5797494,neighbourhood,Crouch Hall Park,,
London,node,3928669781,-0.0830565,51.548062,suburb,Ball's Pond,,
London,node,3930510015,-0.1000295,51.6123266,suburb,Bowes,,
London,node,3930564513,-0.1787368,51.6057602,suburb,Fallow Corner,,
London,node,3933853634,-0.2188696,51.4997029,suburb,West Kensington Park,,
London,node,3933858663,-0.1952295,51.4918874,suburb,Earl's Court,,
London,node,3933865037,-0.1979497,51.474389,suburb,Parson's Green,,
London,node,3934810644,-0.2383655,51.3977576,suburb,West Barnes,,
London,node,3936968792,-0.1742467,51.5317639,suburb,St. John's Wood,,
London,node,3936973085,-0.194717,51.5240989,suburb,Maida Hill,,
London,node,3936983379,-0.2019082,51.5279347,suburb,West Kilburn,,
London,node,3937587633,-0.118564,51.5133595,neighbourhood,St Clement Danes,,
London,node,3938253583,-0.2376876,51.4826953,suburb,Castelnau,,
London,node,3938381837,-0.1622246,51.4338415,suburb,Upper Tooting,,
London,node,3938408784,-0.141313,51.4075527,suburb,Lonesome,,
London,node,3938413889,-0.1318612,51.417135,suburb,Streatham Vale,,
London,node,3939308798,-0.0442364,51.5115396,suburb,Ratcliffe,,
London,node,3939324659,-0.0635122,51.510035,suburb,St.George in the East,,
London,node,3939325033,-0.0751701,51.5195274,suburb,Spitalfields,,
London,node,3939327711,-0.0673383,51.5206248,suburb,Mile End New Town,,
London,node,3939359610,-0.0268215,51.5341124,suburb,Old Ford,,
London,node,3939364338,-0.0350468,51.5250913,suburb,Mile End,,
London,node,3939368771,-0.0426327,51.5300764,suburb,Globe Town,,
London,node,3939373094,-0.0277034,51.5434262,suburb,Hackney Wick,,
London,node,3939393416,-0.0404086,51.5563607,suburb,Clapton Park,,
London,node,3939406669,-0.0095941,51.5393249,suburb,Stratford Marsh,,
London,node,3939499364,0.0392744,51.5400084,suburb,Plashet,,
London,node,3939503731,0.0263178,51.5419294,suburb,Upton,,
London,node,3939866762,0.0385185,51.5013626,suburb,Silvertown,,
London,node,3939924573,0.1473593,51.4894735,suburb,Belvedere,,
London,node,3943556185,0.0040234,51.4696821,neighbourhood,Blackheath Vale,,
London,node,3943567462,0.0114959,51.4565827,suburb,Lee,,
London,node,3943604906,0.0285241,51.4675731,suburb,Kidbrooke,,
London,node,4053293389,0.1081363,51.5205472,suburb,Riverside,,
London,node,4111910474,-0.5672869,51.2617188,neighbourhood,Slyfield Industrial Estate,,
London,node,4173003440,0.0755699,51.5322759,neighbourhood,Roding Riverside,,
London,node,4183539648,0.0812505,51.5322827,neighbourhood,Gascoigne Estate,,
London,node,4263384431,-0.534398,51.3232826,neighbourhood,Maybury Estate,,
